{
    "trips": [{
            "name": "Caribbean Trip",
            "stops": [{
                    "title": "La Romana",
                    "lat": 18.42229,
                    "lng": -68.96496,
                    "description": "Start of the trip",
                    "image": "images/paris.jpg"
                },
                {
                    "title": "St. Marten",
                    "lat": 18.01281,
                    "lng": -63.04530,
                    "description": "Day 3",
                    "image": "photos/caribbean/stmarten.jpg"
                },
                {
                    "title": "St. Kitts",
                    "lat": 17.29191,
                    "lng": -62.72276,
                    "description": "Day 4",
                    "image": "images/rome.jpg"
                },
                {
                    "title": "Guadeloupe",
                    "lat": 16.23824,
                    "lng": -61.53919,
                    "description": "Day 5",
                    "image": "images/rome.jpg"
                },
                {
                    "title": "Dominica",
                    "lat": 15.29573,
                    "lng": -61.38844,
                    "description": "Day 6",
                    "image": "images/rome.jpg"
                },
                {
                    "title": "St. Lucia",
                    "lat": 14.01124,
                    "lng": -60.99274,
                    "description": "Day 7",
                    "image": "images/rome.jpg"
                },
                {
                    "title": "Barbados",
                    "lat": 13.10319,
                    "lng": -59.63244,
                    "description": "Day 8",
                    "image": "images/rome.jpg"
                },
                {
                    "title": "Martinique",
                    "lat": 14.60110,
                    "lng": -61.06053,
                    "description": "Day 9",
                    "image": "images/rome.jpg"
                },
                {
                    "title": "Curascao",
                    "lat": 12.10871,
                    "lng": -68.93406,
                    "description": "Day 11",
                    "image": "images/rome.jpg"
                },
                {
                    "title": "Aruba",
                    "lat": 12.51791,
                    "lng": -70.04079,
                    "description": "Day 12",
                    "image": "images/rome.jpg"
                },
                {
                    "title": "La Romana",
                    "lat": 18.42229,
                    "lng": -68.96496,
                    "description": "End of the trip",
                    "image": "images/paris.jpg"
                }
            ]
        },
        {
            "name": "Canary trip",
            "stops": [{
                    "title": "Tenerife",
                    "lat": 28.46809,
                    "lng": -16.24264,
                    "description": "Start of the trip",
                    "image": "images/paris.jpg"
                },
                {
                    "title": "Fuerteventura",
                    "lat": 28.49396,
                    "lng": -13.85545,
                    "description": "Day 2",
                    "image": "photos/canary/fuerteventura.jpg"
                },
                {
                    "title": "Lanzarote",
                    "lat": 28.96610,
                    "lng": -13.53330,
                    "description": "Day 3",
                    "image": "photos/canary/lanzarote.jpg"
                },
                {
                    "title": "Gran Canaria",
                    "lat": 28.14020,
                    "lng": -15.42434,
                    "description": "Day 4",
                    "image": "photos/canary/granca.jpg"
                },
                {
                    "title": "Madeira",
                    "lat": 32.64204,
                    "lng": -16.90942,
                    "description": "Day 6",
                    "image": "photos/canary/madeira.jpg"
                },
                {
                    "title": "Tenerife",
                    "lat": 28.46809,
                    "lng": -16.24264,
                    "description": "Start of the trip",
                    "image": "images/paris.jpg"
                }
            ]
        },
        {
            "name": "Mediterranean trip",
            "stops": [{
                    "title": "Mallorca",
                    "lat": 39.54962,
                    "lng": 2.63809,
                    "description": "Start of the trip",
                    "image": "photos/mediterranean/palma.jpg"
                },
                {
                    "title": "La Spezia",
                    "lat": 44.10425,
                    "lng": 9.83313,
                    "description": "Day 2",
                    "image": "photos/mediterranean/pisa.jpg"
                },
                {
                    "title": "Civitavecchia",
                    "lat": 42.09787,
                    "lng": 11.77466,
                    "description": "Day 3",
                    "image": "photos/mediterranean/roma.jpg"
                },
                {
                    "title": "Ajaccio",
                    "lat": 41.92051,
                    "lng": 8.74272,
                    "description": "Day 4",
                    "image": "photos/mediterranean/korsika.jpg"
                },
                {
                    "title": "Barcelona",
                    "lat": 41.32794,
                    "lng": 2.16997,
                    "description": "Day 6",
                    "image": "photos/mediterranean/barcelona.jpg"
                },
                {
                    "title": "Mallorca",
                    "lat": 39.54962,
                    "lng": 2.63809,
                    "description": "End of the trip",
                    "image": "photos/mediterranean/palma.jpg"
                }
            ]
        }
    ]
}